{"mavpackettype": "COMMAND_LONG", "target_system": 1, "target_component": 1, "command": 512, "confirmation": 0, "param1": 148.0, "param2": 0.0, "param3": 0.0, "param4": 0.0, "param5": 0.0, "param6": 0.0, "param7": 0.0, "_type": "COMMAND_LONG", "_ts": 1770833454.694}
{"mavpackettype": "COMMAND_ACK", "command": 512, "result": 0, "progress": 0, "result_param2": 0, "target_system": 255, "target_component": 190, "_type": "COMMAND_ACK", "_ts": 1770833454.707}
{"mavpackettype": "COMMAND_LONG", "target_system": 1, "target_component": 1, "command": 521, "confirmation": 0, "param1": 1.0, "param2": 0.0, "param3": 0.0, "param4": 0.0, "param5": 0.0, "param6": 0.0, "param7": 0.0, "_type": "COMMAND_LONG", "_ts": 1770833454.7089999}
{"mavpackettype": "COMMAND_LONG", "target_system": 1, "target_component": 1, "command": 512, "confirmation": 0, "param1": 300.0, "param2": 0.0, "param3": 0.0, "param4": 0.0, "param5": 0.0, "param6": 0.0, "param7": 0.0, "_type": "COMMAND_LONG", "_ts": 1770833454.876}
{"mavpackettype": "COMMAND_ACK", "command": 512, "result": 0, "progress": 0, "result_param2": 0, "target_system": 255, "target_component": 190, "_type": "COMMAND_ACK", "_ts": 1770833454.909}
{"mavpackettype": "COMMAND_LONG", "target_system": 1, "target_component": 1, "command": 512, "confirmation": 0, "param1": 435.0, "param2": 1.0, "param3": 0.0, "param4": 0.0, "param5": 0.0, "param6": 0.0, "param7": 0.0, "_type": "COMMAND_LONG", "_ts": 1770833454.9229999}
{"mavpackettype": "COMMAND_ACK", "command": 512, "result": 0, "progress": 0, "result_param2": 0, "target_system": 255, "target_component": 190, "_type": "COMMAND_ACK", "_ts": 1770833454.952}
{"mavpackettype": "COMMAND_LONG", "target_system": 1, "target_component": 1, "command": 512, "confirmation": 0, "param1": 435.0, "param2": 2.0, "param3": 0.0, "param4": 0.0, "param5": 0.0, "param6": 0.0, "param7": 0.0, "_type": "COMMAND_LONG", "_ts": 1770833454.978}
{"mavpackettype": "COMMAND_ACK", "command": 512, "result": 0, "progress": 0, "result_param2": 0, "target_system": 255, "target_component": 190, "_type": "COMMAND_ACK", "_ts": 1770833454.978}
{"mavpackettype": "COMMAND_LONG", "target_system": 1, "target_component": 1, "command": 512, "confirmation": 0, "param1": 435.0, "param2": 3.0, "param3": 0.0, "param4": 0.0, "param5": 0.0, "param6": 0.0, "param7": 0.0, "_type": "COMMAND_LONG", "_ts": 1770833454.9829998}
{"mavpackettype": "COMMAND_ACK", "command": 512, "result": 0, "progress": 0, "result_param2": 0, "target_system": 255, "target_component": 190, "_type": "COMMAND_ACK", "_ts": 1770833454.9959998}
{"mavpackettype": "COMMAND_LONG", "target_system": 1, "target_component": 1, "command": 512, "confirmation": 0, "param1": 435.0, "param2": 4.0, "param3": 0.0, "param4": 0.0, "param5": 0.0, "param6": 0.0, "param7": 0.0, "_type": "COMMAND_LONG", "_ts": 1770833455.0}
{"mavpackettype": "COMMAND_LONG", "target_system": 1, "target_component": 1, "command": 512, "confirmation": 0, "param1": 435.0, "param2": 5.0, "param3": 0.0, "param4": 0.0, "param5": 0.0, "param6": 0.0, "param7": 0.0, "_type": "COMMAND_LONG", "_ts": 1770833455.004}
{"mavpackettype": "COMMAND_LONG", "target_system": 1, "target_component": 1, "command": 512, "confirmation": 0, "param1": 435.0, "param2": 6.0, "param3": 0.0, "param4": 0.0, "param5": 0.0, "param6": 0.0, "param7": 0.0, "_type": "COMMAND_LONG", "_ts": 1770833455.004}
{"mavpackettype": "COMMAND_LONG", "target_system": 1, "target_component": 1, "command": 512, "confirmation": 0, "param1": 435.0, "param2": 7.0, "param3": 0.0, "param4": 0.0, "param5": 0.0, "param6": 0.0, "param7": 0.0, "_type": "COMMAND_LONG", "_ts": 1770833455.0049999}
{"mavpackettype": "COMMAND_LONG", "target_system": 1, "target_component": 1, "command": 512, "confirmation": 0, "param1": 435.0, "param2": 8.0, "param3": 0.0, "param4": 0.0, "param5": 0.0, "param6": 0.0, "param7": 0.0, "_type": "COMMAND_LONG", "_ts": 1770833455.0049999}
{"mavpackettype": "COMMAND_LONG", "target_system": 1, "target_component": 1, "command": 512, "confirmation": 0, "param1": 435.0, "param2": 9.0, "param3": 0.0, "param4": 0.0, "param5": 0.0, "param6": 0.0, "param7": 0.0, "_type": "COMMAND_LONG", "_ts": 1770833455.0049999}
{"mavpackettype": "COMMAND_LONG", "target_system": 1, "target_component": 1, "command": 512, "confirmation": 0, "param1": 435.0, "param2": 10.0, "param3": 0.0, "param4": 0.0, "param5": 0.0, "param6": 0.0, "param7": 0.0, "_type": "COMMAND_LONG", "_ts": 1770833455.0049999}
{"mavpackettype": "COMMAND_LONG", "target_system": 1, "target_component": 1, "command": 512, "confirmation": 0, "param1": 435.0, "param2": 11.0, "param3": 0.0, "param4": 0.0, "param5": 0.0, "param6": 0.0, "param7": 0.0, "_type": "COMMAND_LONG", "_ts": 1770833455.0049999}
{"mavpackettype": "COMMAND_LONG", "target_system": 1, "target_component": 1, "command": 512, "confirmation": 0, "param1": 435.0, "param2": 12.0, "param3": 0.0, "param4": 0.0, "param5": 0.0, "param6": 0.0, "param7": 0.0, "_type": "COMMAND_LONG", "_ts": 1770833455.0049999}
{"mavpackettype": "COMMAND_ACK", "command": 512, "result": 0, "progress": 0, "result_param2": 0, "target_system": 255, "target_component": 190, "_type": "COMMAND_ACK", "_ts": 1770833455.047}
{"mavpackettype": "COMMAND_ACK", "command": 512, "result": 0, "progress": 0, "result_param2": 0, "target_system": 255, "target_component": 190, "_type": "COMMAND_ACK", "_ts": 1770833455.047}
{"mavpackettype": "COMMAND_ACK", "command": 512, "result": 0, "progress": 0, "result_param2": 0, "target_system": 255, "target_component": 190, "_type": "COMMAND_ACK", "_ts": 1770833455.047}
{"mavpackettype": "COMMAND_ACK", "command": 512, "result": 0, "progress": 0, "result_param2": 0, "target_system": 255, "target_component": 190, "_type": "COMMAND_ACK", "_ts": 1770833455.047}
{"mavpackettype": "COMMAND_ACK", "command": 512, "result": 0, "progress": 0, "result_param2": 0, "target_system": 255, "target_component": 190, "_type": "COMMAND_ACK", "_ts": 1770833455.047}
{"mavpackettype": "COMMAND_ACK", "command": 512, "result": 0, "progress": 0, "result_param2": 0, "target_system": 255, "target_component": 190, "_type": "COMMAND_ACK", "_ts": 1770833455.047}
{"mavpackettype": "COMMAND_ACK", "command": 512, "result": 0, "progress": 0, "result_param2": 0, "target_system": 255, "target_component": 190, "_type": "COMMAND_ACK", "_ts": 1770833455.047}
{"mavpackettype": "COMMAND_ACK", "command": 512, "result": 0, "progress": 0, "result_param2": 0, "target_system": 255, "target_component": 190, "_type": "COMMAND_ACK", "_ts": 1770833455.047}
{"mavpackettype": "COMMAND_LONG", "target_system": 1, "target_component": 1, "command": 512, "confirmation": 0, "param1": 435.0, "param2": 13.0, "param3": 0.0, "param4": 0.0, "param5": 0.0, "param6": 0.0, "param7": 0.0, "_type": "COMMAND_LONG", "_ts": 1770833455.099}
{"mavpackettype": "COMMAND_ACK", "command": 512, "result": 0, "progress": 0, "result_param2": 0, "target_system": 255, "target_component": 190, "_type": "COMMAND_ACK", "_ts": 1770833455.1009998}
{"mavpackettype": "COMMAND_LONG", "target_system": 1, "target_component": 1, "command": 512, "confirmation": 0, "param1": 435.0, "param2": 14.0, "param3": 0.0, "param4": 0.0, "param5": 0.0, "param6": 0.0, "param7": 0.0, "_type": "COMMAND_LONG", "_ts": 1770833455.109}
{"mavpackettype": "COMMAND_LONG", "target_system": 1, "target_component": 1, "command": 512, "confirmation": 0, "param1": 435.0, "param2": 15.0, "param3": 0.0, "param4": 0.0, "param5": 0.0, "param6": 0.0, "param7": 0.0, "_type": "COMMAND_LONG", "_ts": 1770833455.109}
{"mavpackettype": "COMMAND_LONG", "target_system": 1, "target_component": 1, "command": 512, "confirmation": 0, "param1": 435.0, "param2": 16.0, "param3": 0.0, "param4": 0.0, "param5": 0.0, "param6": 0.0, "param7": 0.0, "_type": "COMMAND_LONG", "_ts": 1770833455.116}
{"mavpackettype": "COMMAND_LONG", "target_system": 1, "target_component": 1, "command": 512, "confirmation": 0, "param1": 435.0, "param2": 17.0, "param3": 0.0, "param4": 0.0, "param5": 0.0, "param6": 0.0, "param7": 0.0, "_type": "COMMAND_LONG", "_ts": 1770833455.116}
{"mavpackettype": "COMMAND_ACK", "command": 512, "result": 0, "progress": 0, "result_param2": 0, "target_system": 255, "target_component": 190, "_type": "COMMAND_ACK", "_ts": 1770833455.135}
{"mavpackettype": "COMMAND_ACK", "command": 512, "result": 0, "progress": 0, "result_param2": 0, "target_system": 255, "target_component": 190, "_type": "COMMAND_ACK", "_ts": 1770833455.135}
{"mavpackettype": "COMMAND_ACK", "command": 512, "result": 0, "progress": 0, "result_param2": 0, "target_system": 255, "target_component": 190, "_type": "COMMAND_ACK", "_ts": 1770833455.135}
{"mavpackettype": "COMMAND_ACK", "command": 512, "result": 0, "progress": 0, "result_param2": 0, "target_system": 255, "target_component": 190, "_type": "COMMAND_ACK", "_ts": 1770833455.135}
{"mavpackettype": "COMMAND_LONG", "target_system": 1, "target_component": 1, "command": 512, "confirmation": 0, "param1": 435.0, "param2": 18.0, "param3": 0.0, "param4": 0.0, "param5": 0.0, "param6": 0.0, "param7": 0.0, "_type": "COMMAND_LONG", "_ts": 1770833455.139}
{"mavpackettype": "COMMAND_LONG", "target_system": 1, "target_component": 1, "command": 512, "confirmation": 0, "param1": 435.0, "param2": 19.0, "param3": 0.0, "param4": 0.0, "param5": 0.0, "param6": 0.0, "param7": 0.0, "_type": "COMMAND_LONG", "_ts": 1770833455.145}
{"mavpackettype": "COMMAND_LONG", "target_system": 1, "target_component": 1, "command": 512, "confirmation": 0, "param1": 435.0, "param2": 20.0, "param3": 0.0, "param4": 0.0, "param5": 0.0, "param6": 0.0, "param7": 0.0, "_type": "COMMAND_LONG", "_ts": 1770833455.155}
{"mavpackettype": "COMMAND_LONG", "target_system": 1, "target_component": 1, "command": 512, "confirmation": 0, "param1": 435.0, "param2": 21.0, "param3": 0.0, "param4": 0.0, "param5": 0.0, "param6": 0.0, "param7": 0.0, "_type": "COMMAND_LONG", "_ts": 1770833455.159}
{"mavpackettype": "COMMAND_LONG", "target_system": 1, "target_component": 1, "command": 512, "confirmation": 0, "param1": 435.0, "param2": 22.0, "param3": 0.0, "param4": 0.0, "param5": 0.0, "param6": 0.0, "param7": 0.0, "_type": "COMMAND_LONG", "_ts": 1770833455.162}
{"mavpackettype": "COMMAND_LONG", "target_system": 1, "target_component": 1, "command": 512, "confirmation": 0, "param1": 435.0, "param2": 23.0, "param3": 0.0, "param4": 0.0, "param5": 0.0, "param6": 0.0, "param7": 0.0, "_type": "COMMAND_LONG", "_ts": 1770833455.165}
{"mavpackettype": "COMMAND_LONG", "target_system": 1, "target_component": 1, "command": 512, "confirmation": 0, "param1": 435.0, "param2": 24.0, "param3": 0.0, "param4": 0.0, "param5": 0.0, "param6": 0.0, "param7": 0.0, "_type": "COMMAND_LONG", "_ts": 1770833455.165}
{"mavpackettype": "COMMAND_LONG", "target_system": 1, "target_component": 1, "command": 512, "confirmation": 0, "param1": 435.0, "param2": 25.0, "param3": 0.0, "param4": 0.0, "param5": 0.0, "param6": 0.0, "param7": 0.0, "_type": "COMMAND_LONG", "_ts": 1770833455.165}
{"mavpackettype": "COMMAND_LONG", "target_system": 1, "target_component": 1, "command": 512, "confirmation": 0, "param1": 435.0, "param2": 26.0, "param3": 0.0, "param4": 0.0, "param5": 0.0, "param6": 0.0, "param7": 0.0, "_type": "COMMAND_LONG", "_ts": 1770833455.165}
{"mavpackettype": "COMMAND_LONG", "target_system": 1, "target_component": 1, "command": 512, "confirmation": 0, "param1": 397.0, "param2": 0.0, "param3": 0.0, "param4": 0.0, "param5": 0.0, "param6": 0.0, "param7": 0.0, "_type": "COMMAND_LONG", "_ts": 1770833455.241}
{"mavpackettype": "COMMAND_ACK", "command": 512, "result": 0, "progress": 0, "result_param2": 0, "target_system": 255, "target_component": 190, "_type": "COMMAND_ACK", "_ts": 1770833455.248}
{"mavpackettype": "COMMAND_ACK", "command": 512, "result": 0, "progress": 0, "result_param2": 0, "target_system": 255, "target_component": 190, "_type": "COMMAND_ACK", "_ts": 1770833455.248}
{"mavpackettype": "COMMAND_ACK", "command": 512, "result": 0, "progress": 0, "result_param2": 0, "target_system": 255, "target_component": 190, "_type": "COMMAND_ACK", "_ts": 1770833455.248}
{"mavpackettype": "COMMAND_ACK", "command": 512, "result": 0, "progress": 0, "result_param2": 0, "target_system": 255, "target_component": 190, "_type": "COMMAND_ACK", "_ts": 1770833455.248}
{"mavpackettype": "COMMAND_ACK", "command": 512, "result": 0, "progress": 0, "result_param2": 0, "target_system": 255, "target_component": 190, "_type": "COMMAND_ACK", "_ts": 1770833455.248}
{"mavpackettype": "COMMAND_ACK", "command": 512, "result": 0, "progress": 0, "result_param2": 0, "target_system": 255, "target_component": 190, "_type": "COMMAND_ACK", "_ts": 1770833455.248}
{"mavpackettype": "COMMAND_ACK", "command": 512, "result": 0, "progress": 0, "result_param2": 0, "target_system": 255, "target_component": 190, "_type": "COMMAND_ACK", "_ts": 1770833455.248}
{"mavpackettype": "COMMAND_ACK", "command": 512, "result": 0, "progress": 0, "result_param2": 0, "target_system": 255, "target_component": 190, "_type": "COMMAND_ACK", "_ts": 1770833455.248}
{"mavpackettype": "COMMAND_ACK", "command": 512, "result": 0, "progress": 0, "result_param2": 0, "target_system": 255, "target_component": 190, "_type": "COMMAND_ACK", "_ts": 1770833455.248}
{"mavpackettype": "COMMAND_LONG", "target_system": 1, "target_component": 1, "command": 401, "confirmation": 0, "param1": 0.0, "param2": 0.0, "param3": 0.0, "param4": 0.0, "param5": 0.0, "param6": 0.0, "param7": 0.0, "_type": "COMMAND_LONG", "_ts": 1770833455.378}
{"mavpackettype": "COMMAND_ACK", "command": 401, "result": 0, "progress": 0, "result_param2": 0, "target_system": 255, "target_component": 190, "_type": "COMMAND_ACK", "_ts": 1770833455.4559999}
{"mavpackettype": "COMMAND_LONG", "target_system": 1, "target_component": 1, "command": 512, "confirmation": 0, "param1": 280.0, "param2": 0.0, "param3": 0.0, "param4": 0.0, "param5": 0.0, "param6": 0.0, "param7": 0.0, "_type": "COMMAND_LONG", "_ts": 1770833457.725}
{"mavpackettype": "COMMAND_ACK", "command": 512, "result": 2, "progress": 0, "result_param2": 0, "target_system": 255, "target_component": 190, "_type": "COMMAND_ACK", "_ts": 1770833457.7329998}
{"mavpackettype": "COMMAND_LONG", "target_system": 1, "target_component": 1, "command": 512, "confirmation": 0, "param1": 259.0, "param2": 0.0, "param3": 0.0, "param4": 0.0, "param5": 0.0, "param6": 0.0, "param7": 0.0, "_type": "COMMAND_LONG", "_ts": 1770833460.204}
{"mavpackettype": "COMMAND_ACK", "command": 512, "result": 2, "progress": 0, "result_param2": 0, "target_system": 255, "target_component": 190, "_type": "COMMAND_ACK", "_ts": 1770833460.204}
{"mavpackettype": "COMMAND_LONG", "target_system": 1, "target_component": 1, "command": 521, "confirmation": 0, "param1": 1.0, "param2": 0.0, "param3": 0.0, "param4": 0.0, "param5": 0.0, "param6": 0.0, "param7": 0.0, "_type": "COMMAND_LONG", "_ts": 1770833460.205}
{"mavpackettype": "COMMAND_LONG", "target_system": 1, "target_component": 1, "command": 512, "confirmation": 0, "param1": 280.0, "param2": 0.0, "param3": 0.0, "param4": 0.0, "param5": 0.0, "param6": 0.0, "param7": 0.0, "_type": "COMMAND_LONG", "_ts": 1770833460.266}
{"mavpackettype": "COMMAND_ACK", "command": 512, "result": 2, "progress": 0, "result_param2": 0, "target_system": 255, "target_component": 190, "_type": "COMMAND_ACK", "_ts": 1770833460.273}
{"mavpackettype": "COMMAND_LONG", "target_system": 1, "target_component": 1, "command": 512, "confirmation": 0, "param1": 280.0, "param2": 0.0, "param3": 0.0, "param4": 0.0, "param5": 0.0, "param6": 0.0, "param7": 0.0, "_type": "COMMAND_LONG", "_ts": 1770833463.55}
{"mavpackettype": "COMMAND_ACK", "command": 512, "result": 2, "progress": 0, "result_param2": 0, "target_system": 255, "target_component": 190, "_type": "COMMAND_ACK", "_ts": 1770833463.5609999}
{"mavpackettype": "COMMAND_LONG", "target_system": 1, "target_component": 1, "command": 512, "confirmation": 0, "param1": 280.0, "param2": 0.0, "param3": 0.0, "param4": 0.0, "param5": 0.0, "param6": 0.0, "param7": 0.0, "_type": "COMMAND_LONG", "_ts": 1770833466.224}
{"mavpackettype": "COMMAND_ACK", "command": 512, "result": 2, "progress": 0, "result_param2": 0, "target_system": 255, "target_component": 190, "_type": "COMMAND_ACK", "_ts": 1770833466.2289999}
{"mavpackettype": "COMMAND_LONG", "target_system": 1, "target_component": 1, "command": 512, "confirmation": 0, "param1": 259.0, "param2": 0.0, "param3": 0.0, "param4": 0.0, "param5": 0.0, "param6": 0.0, "param7": 0.0, "_type": "COMMAND_LONG", "_ts": 1770833467.6569998}
{"mavpackettype": "COMMAND_ACK", "command": 512, "result": 2, "progress": 0, "result_param2": 0, "target_system": 255, "target_component": 190, "_type": "COMMAND_ACK", "_ts": 1770833467.662}
{"mavpackettype": "COMMAND_LONG", "target_system": 1, "target_component": 1, "command": 521, "confirmation": 0, "param1": 1.0, "param2": 0.0, "param3": 0.0, "param4": 0.0, "param5": 0.0, "param6": 0.0, "param7": 0.0, "_type": "COMMAND_LONG", "_ts": 1770833467.662}
{"mavpackettype": "COMMAND_LONG", "target_system": 1, "target_component": 1, "command": 512, "confirmation": 0, "param1": 280.0, "param2": 0.0, "param3": 0.0, "param4": 0.0, "param5": 0.0, "param6": 0.0, "param7": 0.0, "_type": "COMMAND_LONG", "_ts": 1770833468.4989998}
{"mavpackettype": "COMMAND_ACK", "command": 512, "result": 2, "progress": 0, "result_param2": 0, "target_system": 255, "target_component": 190, "_type": "COMMAND_ACK", "_ts": 1770833468.503}
{"mavpackettype": "COMMAND_LONG", "target_system": 1, "target_component": 1, "command": 512, "confirmation": 0, "param1": 280.0, "param2": 0.0, "param3": 0.0, "param4": 0.0, "param5": 0.0, "param6": 0.0, "param7": 0.0, "_type": "COMMAND_LONG", "_ts": 1770833470.712}
{"mavpackettype": "COMMAND_ACK", "command": 512, "result": 2, "progress": 0, "result_param2": 0, "target_system": 255, "target_component": 190, "_type": "COMMAND_ACK", "_ts": 1770833470.715}
{"mavpackettype": "COMMAND_LONG", "target_system": 1, "target_component": 1, "command": 512, "confirmation": 0, "param1": 259.0, "param2": 0.0, "param3": 0.0, "param4": 0.0, "param5": 0.0, "param6": 0.0, "param7": 0.0, "_type": "COMMAND_LONG", "_ts": 1770833479.582}
{"mavpackettype": "COMMAND_ACK", "command": 512, "result": 2, "progress": 0, "result_param2": 0, "target_system": 255, "target_component": 190, "_type": "COMMAND_ACK", "_ts": 1770833479.5879998}
{"mavpackettype": "COMMAND_LONG", "target_system": 1, "target_component": 1, "command": 521, "confirmation": 0, "param1": 1.0, "param2": 0.0, "param3": 0.0, "param4": 0.0, "param5": 0.0, "param6": 0.0, "param7": 0.0, "_type": "COMMAND_LONG", "_ts": 1770833479.5879998}
{"mavpackettype": "COMMAND_LONG", "target_system": 1, "target_component": 1, "command": 512, "confirmation": 0, "param1": 259.0, "param2": 0.0, "param3": 0.0, "param4": 0.0, "param5": 0.0, "param6": 0.0, "param7": 0.0, "_type": "COMMAND_LONG", "_ts": 1770833498.6569998}
{"mavpackettype": "COMMAND_ACK", "command": 512, "result": 2, "progress": 0, "result_param2": 0, "target_system": 255, "target_component": 190, "_type": "COMMAND_ACK", "_ts": 1770833498.658}
{"mavpackettype": "COMMAND_LONG", "target_system": 1, "target_component": 1, "command": 521, "confirmation": 0, "param1": 1.0, "param2": 0.0, "param3": 0.0, "param4": 0.0, "param5": 0.0, "param6": 0.0, "param7": 0.0, "_type": "COMMAND_LONG", "_ts": 1770833498.658}
{"mavpackettype": "COMMAND_LONG", "target_system": 1, "target_component": 1, "command": 400, "confirmation": 0, "param1": 1.0, "param2": 0.0, "param3": 0.0, "param4": 0.0, "param5": 0.0, "param6": 0.0, "param7": 0.0, "_type": "COMMAND_LONG", "_ts": 1770833958.46}
{"mavpackettype": "COMMAND_ACK", "command": 400, "result": 0, "progress": 0, "result_param2": 0, "target_system": 255, "target_component": 190, "_type": "COMMAND_ACK", "_ts": 1770833958.543}
{"mavpackettype": "COMMAND_LONG", "target_system": 1, "target_component": 1, "command": 22, "confirmation": 0, "param1": -1.0, "param2": 0.0, "param3": 0.0, "param4": NaN, "param5": NaN, "param6": NaN, "param7": 3.276357412338257, "_type": "COMMAND_LONG", "_ts": 1770833961.199}
{"mavpackettype": "COMMAND_ACK", "command": 22, "result": 0, "progress": 0, "result_param2": 0, "target_system": 255, "target_component": 190, "_type": "COMMAND_ACK", "_ts": 1770833961.201}
{"mavpackettype": "COMMAND_ACK", "command": 176, "result": 0, "progress": 0, "result_param2": 0, "target_system": 255, "target_component": 190, "_type": "COMMAND_ACK", "_ts": 1770834228.873}
{"mavpackettype": "COMMAND_ACK", "command": 176, "result": 0, "progress": 0, "result_param2": 0, "target_system": 255, "target_component": 190, "_type": "COMMAND_ACK", "_ts": 1770834232.534}
{"mavpackettype": "COMMAND_LONG", "target_system": 1, "target_component": 0, "command": 1001, "confirmation": 0, "param1": 1.0, "param2": 1.0, "param3": -1.0, "param4": -1.0, "param5": 0.0, "param6": 0.0, "param7": 0.0, "_type": "COMMAND_LONG", "_ts": 1770834232.912}
{"mavpackettype": "COMMAND_LONG", "target_system": 1, "target_component": 0, "command": 1000, "confirmation": 0, "param1": NaN, "param2": NaN, "param3": NaN, "param4": NaN, "param5": 2.0, "param6": 0.0, "param7": 0.0, "_type": "COMMAND_LONG", "_ts": 1770834232.922}
{"mavpackettype": "COMMAND_LONG", "target_system": 1, "target_component": 0, "command": 1001, "confirmation": 0, "param1": -3.0, "param2": -3.0, "param3": -1.0, "param4": -1.0, "param5": 0.0, "param6": 0.0, "param7": 0.0, "_type": "COMMAND_LONG", "_ts": 1770834232.922}
{"mavpackettype": "COMMAND_ACK", "command": 176, "result": 0, "progress": 0, "result_param2": 0, "target_system": 255, "target_component": 190, "_type": "COMMAND_ACK", "_ts": 1770834234.2189999}
{"mavpackettype": "COMMAND_LONG", "target_system": 1, "target_component": 1, "command": 512, "confirmation": 0, "param1": 259.0, "param2": 0.0, "param3": 0.0, "param4": 0.0, "param5": 0.0, "param6": 0.0, "param7": 0.0, "_type": "COMMAND_LONG", "_ts": 1770834234.5939999}
{"mavpackettype": "COMMAND_ACK", "command": 512, "result": 2, "progress": 0, "result_param2": 0, "target_system": 255, "target_component": 190, "_type": "COMMAND_ACK", "_ts": 1770834234.5939999}
{"mavpackettype": "COMMAND_LONG", "target_system": 1, "target_component": 1, "command": 521, "confirmation": 0, "param1": 1.0, "param2": 0.0, "param3": 0.0, "param4": 0.0, "param5": 0.0, "param6": 0.0, "param7": 0.0, "_type": "COMMAND_LONG", "_ts": 1770834234.615}
{"mavpackettype": "COMMAND_LONG", "target_system": 1, "target_component": 0, "command": 1001, "confirmation": 1, "param1": 1.0, "param2": 1.0, "param3": -1.0, "param4": -1.0, "param5": 0.0, "param6": 0.0, "param7": 0.0, "_type": "COMMAND_LONG", "_ts": 1770834236.043}
{"mavpackettype": "COMMAND_LONG", "target_system": 1, "target_component": 0, "command": 1001, "confirmation": 1, "param1": -3.0, "param2": -3.0, "param3": -1.0, "param4": -1.0, "param5": 0.0, "param6": 0.0, "param7": 0.0, "_type": "COMMAND_LONG", "_ts": 1770834236.077}
{"mavpackettype": "COMMAND_LONG", "target_system": 1, "target_component": 0, "command": 1001, "confirmation": 2, "param1": 1.0, "param2": 1.0, "param3": -1.0, "param4": -1.0, "param5": 0.0, "param6": 0.0, "param7": 0.0, "_type": "COMMAND_LONG", "_ts": 1770834237.7419999}
{"mavpackettype": "COMMAND_LONG", "target_system": 1, "target_component": 0, "command": 1001, "confirmation": 3, "param1": 1.0, "param2": 1.0, "param3": -1.0, "param4": -1.0, "param5": 0.0, "param6": 0.0, "param7": 0.0, "_type": "COMMAND_LONG", "_ts": 1770834237.7649999}
{"mavpackettype": "COMMAND_LONG", "target_system": 1, "target_component": 0, "command": 1001, "confirmation": 2, "param1": -3.0, "param2": -3.0, "param3": -1.0, "param4": -1.0, "param5": 0.0, "param6": 0.0, "param7": 0.0, "_type": "COMMAND_LONG", "_ts": 1770834237.7689998}
{"mavpackettype": "COMMAND_LONG", "target_system": 1, "target_component": 0, "command": 1001, "confirmation": 3, "param1": -3.0, "param2": -3.0, "param3": -1.0, "param4": -1.0, "param5": 0.0, "param6": 0.0, "param7": 0.0, "_type": "COMMAND_LONG", "_ts": 1770834237.78}
{"mavpackettype": "COMMAND_LONG", "target_system": 1, "target_component": 1, "command": 512, "confirmation": 0, "param1": 259.0, "param2": 0.0, "param3": 0.0, "param4": 0.0, "param5": 0.0, "param6": 0.0, "param7": 0.0, "_type": "COMMAND_LONG", "_ts": 1770834239.655}
{"mavpackettype": "COMMAND_ACK", "command": 512, "result": 2, "progress": 0, "result_param2": 0, "target_system": 255, "target_component": 190, "_type": "COMMAND_ACK", "_ts": 1770834239.655}
{"mavpackettype": "COMMAND_LONG", "target_system": 1, "target_component": 1, "command": 521, "confirmation": 0, "param1": 1.0, "param2": 0.0, "param3": 0.0, "param4": 0.0, "param5": 0.0, "param6": 0.0, "param7": 0.0, "_type": "COMMAND_LONG", "_ts": 1770834239.655}
{"mavpackettype": "COMMAND_LONG", "target_system": 1, "target_component": 1, "command": 512, "confirmation": 0, "param1": 259.0, "param2": 0.0, "param3": 0.0, "param4": 0.0, "param5": 0.0, "param6": 0.0, "param7": 0.0, "_type": "COMMAND_LONG", "_ts": 1770834246.6669998}
{"mavpackettype": "COMMAND_ACK", "command": 512, "result": 2, "progress": 0, "result_param2": 0, "target_system": 255, "target_component": 190, "_type": "COMMAND_ACK", "_ts": 1770834246.671}
{"mavpackettype": "COMMAND_LONG", "target_system": 1, "target_component": 1, "command": 521, "confirmation": 0, "param1": 1.0, "param2": 0.0, "param3": 0.0, "param4": 0.0, "param5": 0.0, "param6": 0.0, "param7": 0.0, "_type": "COMMAND_LONG", "_ts": 1770834246.671}
{"mavpackettype": "COMMAND_LONG", "target_system": 1, "target_component": 1, "command": 512, "confirmation": 0, "param1": 259.0, "param2": 0.0, "param3": 0.0, "param4": 0.0, "param5": 0.0, "param6": 0.0, "param7": 0.0, "_type": "COMMAND_LONG", "_ts": 1770834258.6069999}
{"mavpackettype": "COMMAND_ACK", "command": 512, "result": 2, "progress": 0, "result_param2": 0, "target_system": 255, "target_component": 190, "_type": "COMMAND_ACK", "_ts": 1770834258.625}
{"mavpackettype": "COMMAND_LONG", "target_system": 1, "target_component": 1, "command": 521, "confirmation": 0, "param1": 1.0, "param2": 0.0, "param3": 0.0, "param4": 0.0, "param5": 0.0, "param6": 0.0, "param7": 0.0, "_type": "COMMAND_LONG", "_ts": 1770834258.629}
{"mavpackettype": "COMMAND_LONG", "target_system": 1, "target_component": 1, "command": 512, "confirmation": 0, "param1": 259.0, "param2": 0.0, "param3": 0.0, "param4": 0.0, "param5": 0.0, "param6": 0.0, "param7": 0.0, "_type": "COMMAND_LONG", "_ts": 1770834277.6569998}
{"mavpackettype": "COMMAND_ACK", "command": 512, "result": 2, "progress": 0, "result_param2": 0, "target_system": 255, "target_component": 190, "_type": "COMMAND_ACK", "_ts": 1770834277.661}
{"mavpackettype": "COMMAND_LONG", "target_system": 1, "target_component": 1, "command": 521, "confirmation": 0, "param1": 1.0, "param2": 0.0, "param3": 0.0, "param4": 0.0, "param5": 0.0, "param6": 0.0, "param7": 0.0, "_type": "COMMAND_LONG", "_ts": 1770834277.661}
{"mavpackettype": "COMMAND_LONG", "target_system": 1, "target_component": 1, "command": 22, "confirmation": 0, "param1": -1.0, "param2": 0.0, "param3": 0.0, "param4": NaN, "param5": NaN, "param6": NaN, "param7": 3.279688835144043, "_type": "COMMAND_LONG", "_ts": 1770834556.787}
{"mavpackettype": "COMMAND_ACK", "command": 22, "result": 0, "progress": 0, "result_param2": 0, "target_system": 255, "target_component": 190, "_type": "COMMAND_ACK", "_ts": 1770834556.8379998}
{"mavpackettype": "COMMAND_LONG", "target_system": 1, "target_component": 1, "command": 400, "confirmation": 0, "param1": 1.0, "param2": 0.0, "param3": 0.0, "param4": 0.0, "param5": 0.0, "param6": 0.0, "param7": 0.0, "_type": "COMMAND_LONG", "_ts": 1770834556.839}
{"mavpackettype": "COMMAND_ACK", "command": 400, "result": 0, "progress": 0, "result_param2": 0, "target_system": 255, "target_component": 190, "_type": "COMMAND_ACK", "_ts": 1770834556.8579998}
{"mavpackettype": "COMMAND_ACK", "command": 176, "result": 0, "progress": 0, "result_param2": 0, "target_system": 255, "target_component": 190, "_type": "COMMAND_ACK", "_ts": 1770834663.806}
{"mavpackettype": "COMMAND_LONG", "target_system": 1, "target_component": 0, "command": 195, "confirmation": 0, "param1": 0.0, "param2": 0.0, "param3": 0.0, "param4": 0.0, "param5": 47.39962387084961, "param6": 8.54238510131836, "param7": 50.20000457763672, "_type": "COMMAND_LONG", "_ts": 1770834711.018}
{"mavpackettype": "COMMAND_LONG", "target_system": 1, "target_component": 0, "command": 197, "confirmation": 0, "param1": 0.0, "param2": 0.0, "param3": 0.0, "param4": 0.0, "param5": 0.0, "param6": 0.0, "param7": 0.0, "_type": "COMMAND_LONG", "_ts": 1770834711.024}
{"mavpackettype": "COMMAND_LONG", "target_system": 1, "target_component": 0, "command": 195, "confirmation": 1, "param1": 0.0, "param2": 0.0, "param3": 0.0, "param4": 0.0, "param5": 47.39962387084961, "param6": 8.54238510131836, "param7": 50.20000457763672, "_type": "COMMAND_LONG", "_ts": 1770834712.24}
{"mavpackettype": "COMMAND_LONG", "target_system": 1, "target_component": 0, "command": 197, "confirmation": 1, "param1": 0.0, "param2": 0.0, "param3": 0.0, "param4": 0.0, "param5": 0.0, "param6": 0.0, "param7": 0.0, "_type": "COMMAND_LONG", "_ts": 1770834712.24}
{"mavpackettype": "COMMAND_LONG", "target_system": 1, "target_component": 0, "command": 195, "confirmation": 2, "param1": 0.0, "param2": 0.0, "param3": 0.0, "param4": 0.0, "param5": 47.39962387084961, "param6": 8.54238510131836, "param7": 50.20000457763672, "_type": "COMMAND_LONG", "_ts": 1770834715.039}
{"mavpackettype": "COMMAND_LONG", "target_system": 1, "target_component": 0, "command": 197, "confirmation": 2, "param1": 0.0, "param2": 0.0, "param3": 0.0, "param4": 0.0, "param5": 0.0, "param6": 0.0, "param7": 0.0, "_type": "COMMAND_LONG", "_ts": 1770834715.039}
{"mavpackettype": "COMMAND_LONG", "target_system": 1, "target_component": 0, "command": 195, "confirmation": 3, "param1": 0.0, "param2": 0.0, "param3": 0.0, "param4": 0.0, "param5": 47.39962387084961, "param6": 8.54238510131836, "param7": 50.20000457763672, "_type": "COMMAND_LONG", "_ts": 1770834716.267}
{"mavpackettype": "COMMAND_LONG", "target_system": 1, "target_component": 0, "command": 197, "confirmation": 3, "param1": 0.0, "param2": 0.0, "param3": 0.0, "param4": 0.0, "param5": 0.0, "param6": 0.0, "param7": 0.0, "_type": "COMMAND_LONG", "_ts": 1770834716.267}
{"mavpackettype": "COMMAND_LONG", "target_system": 1, "target_component": 0, "command": 20, "confirmation": 0, "param1": 0.0, "param2": 0.0, "param3": 0.0, "param4": 0.0, "param5": 0.0, "param6": 0.0, "param7": 0.0, "_type": "COMMAND_LONG", "_ts": 1770835354.991}
{"mavpackettype": "COMMAND_LONG", "target_system": 1, "target_component": 0, "command": 2003, "confirmation": 0, "param1": -1.0, "param2": 0.0, "param3": 1.0, "param4": 0.0, "param5": 0.0, "param6": 0.0, "param7": 0.0, "_type": "COMMAND_LONG", "_ts": 1770835355.034}
{"mavpackettype": "COMMAND_LONG", "target_system": 1, "target_component": 0, "command": 1001, "confirmation": 0, "param1": 1.0, "param2": 1.0, "param3": -1.0, "param4": -1.0, "param5": 0.0, "param6": 0.0, "param7": 0.0, "_type": "COMMAND_LONG", "_ts": 1770835355.7649999}
{"mavpackettype": "COMMAND_LONG", "target_system": 1, "target_component": 0, "command": 1000, "confirmation": 0, "param1": NaN, "param2": NaN, "param3": NaN, "param4": NaN, "param5": 2.0, "param6": 0.0, "param7": 0.0, "_type": "COMMAND_LONG", "_ts": 1770835355.774}
{"mavpackettype": "COMMAND_LONG", "target_system": 1, "target_component": 0, "command": 1001, "confirmation": 0, "param1": -3.0, "param2": -3.0, "param3": -1.0, "param4": -1.0, "param5": 0.0, "param6": 0.0, "param7": 0.0, "_type": "COMMAND_LONG", "_ts": 1770835355.7879999}
{"mavpackettype": "COMMAND_LONG", "target_system": 1, "target_component": 0, "command": 1001, "confirmation": 1, "param1": 1.0, "param2": 1.0, "param3": -1.0, "param4": -1.0, "param5": 0.0, "param6": 0.0, "param7": 0.0, "_type": "COMMAND_LONG", "_ts": 1770835358.405}
{"mavpackettype": "COMMAND_LONG", "target_system": 1, "target_component": 0, "command": 20, "confirmation": 1, "param1": 0.0, "param2": 0.0, "param3": 0.0, "param4": 0.0, "param5": 0.0, "param6": 0.0, "param7": 0.0, "_type": "COMMAND_LONG", "_ts": 1770835358.888}
{"mavpackettype": "COMMAND_LONG", "target_system": 1, "target_component": 0, "command": 2003, "confirmation": 1, "param1": -1.0, "param2": 0.0, "param3": 1.0, "param4": 0.0, "param5": 0.0, "param6": 0.0, "param7": 0.0, "_type": "COMMAND_LONG", "_ts": 1770835358.921}
{"mavpackettype": "COMMAND_LONG", "target_system": 1, "target_component": 0, "command": 1001, "confirmation": 2, "param1": 1.0, "param2": 1.0, "param3": -1.0, "param4": -1.0, "param5": 0.0, "param6": 0.0, "param7": 0.0, "_type": "COMMAND_LONG", "_ts": 1770835359.4029999}
{"mavpackettype": "COMMAND_LONG", "target_system": 1, "target_component": 0, "command": 20, "confirmation": 2, "param1": 0.0, "param2": 0.0, "param3": 0.0, "param4": 0.0, "param5": 0.0, "param6": 0.0, "param7": 0.0, "_type": "COMMAND_LONG", "_ts": 1770835359.81}
{"mavpackettype": "COMMAND_LONG", "target_system": 1, "target_component": 0, "command": 2003, "confirmation": 2, "param1": -1.0, "param2": 0.0, "param3": 1.0, "param4": 0.0, "param5": 0.0, "param6": 0.0, "param7": 0.0, "_type": "COMMAND_LONG", "_ts": 1770835359.824}
{"mavpackettype": "COMMAND_LONG", "target_system": 1, "target_component": 0, "command": 1001, "confirmation": 3, "param1": 1.0, "param2": 1.0, "param3": -1.0, "param4": -1.0, "param5": 0.0, "param6": 0.0, "param7": 0.0, "_type": "COMMAND_LONG", "_ts": 1770835360.329}
{"mavpackettype": "COMMAND_LONG", "target_system": 1, "target_component": 0, "command": 20, "confirmation": 3, "param1": 0.0, "param2": 0.0, "param3": 0.0, "param4": 0.0, "param5": 0.0, "param6": 0.0, "param7": 0.0, "_type": "COMMAND_LONG", "_ts": 1770835360.7589998}
{"mavpackettype": "COMMAND_LONG", "target_system": 1, "target_component": 0, "command": 2003, "confirmation": 3, "param1": -1.0, "param2": 0.0, "param3": 1.0, "param4": 0.0, "param5": 0.0, "param6": 0.0, "param7": 0.0, "_type": "COMMAND_LONG", "_ts": 1770835360.77}
{"mavpackettype": "COMMAND_LONG", "target_system": 1, "target_component": 0, "command": 0, "confirmation": 0, "param1": 0.0, "param2": 2.0, "param3": 80.0, "param4": NaN, "param5": 0.0, "param6": 0.0, "param7": 0.2000027447938919, "_type": "COMMAND_LONG", "_ts": 1770835531.352}
{"mavpackettype": "COMMAND_LONG", "target_system": 1, "target_component": 0, "command": 0, "confirmation": 1, "param1": 0.0, "param2": 2.0, "param3": 80.0, "param4": NaN, "param5": 0.0, "param6": 0.0, "param7": 0.2000027447938919, "_type": "COMMAND_LONG", "_ts": 1770835533.184}
{"mavpackettype": "COMMAND_LONG", "target_system": 1, "target_component": 0, "command": 0, "confirmation": 2, "param1": 0.0, "param2": 2.0, "param3": 80.0, "param4": NaN, "param5": 0.0, "param6": 0.0, "param7": 0.2000027447938919, "_type": "COMMAND_LONG", "_ts": 1770835534.0779998}
{"mavpackettype": "COMMAND_LONG", "target_system": 1, "target_component": 0, "command": 0, "confirmation": 3, "param1": 0.0, "param2": 2.0, "param3": 80.0, "param4": NaN, "param5": 0.0, "param6": 0.0, "param7": 0.2000027447938919, "_type": "COMMAND_LONG", "_ts": 1770835534.0809999}
{"mavpackettype": "COMMAND_LONG", "target_system": 1, "target_component": 1, "command": 512, "confirmation": 0, "param1": 259.0, "param2": 0.0, "param3": 0.0, "param4": 0.0, "param5": 0.0, "param6": 0.0, "param7": 0.0, "_type": "COMMAND_LONG", "_ts": 1770835594.836}
{"mavpackettype": "COMMAND_ACK", "command": 512, "result": 2, "progress": 0, "result_param2": 0, "target_system": 255, "target_component": 190, "_type": "COMMAND_ACK", "_ts": 1770835594.837}
{"mavpackettype": "COMMAND_LONG", "target_system": 1, "target_component": 1, "command": 521, "confirmation": 0, "param1": 1.0, "param2": 0.0, "param3": 0.0, "param4": 0.0, "param5": 0.0, "param6": 0.0, "param7": 0.0, "_type": "COMMAND_LONG", "_ts": 1770835594.8379998}
{"mavpackettype": "COMMAND_LONG", "target_system": 1, "target_component": 1, "command": 512, "confirmation": 0, "param1": 259.0, "param2": 0.0, "param3": 0.0, "param4": 0.0, "param5": 0.0, "param6": 0.0, "param7": 0.0, "_type": "COMMAND_LONG", "_ts": 1770835600.179}
{"mavpackettype": "COMMAND_ACK", "command": 512, "result": 2, "progress": 0, "result_param2": 0, "target_system": 255, "target_component": 190, "_type": "COMMAND_ACK", "_ts": 1770835600.179}
{"mavpackettype": "COMMAND_LONG", "target_system": 1, "target_component": 1, "command": 521, "confirmation": 0, "param1": 1.0, "param2": 0.0, "param3": 0.0, "param4": 0.0, "param5": 0.0, "param6": 0.0, "param7": 0.0, "_type": "COMMAND_LONG", "_ts": 1770835600.179}
{"mavpackettype": "COMMAND_LONG", "target_system": 1, "target_component": 1, "command": 512, "confirmation": 0, "param1": 259.0, "param2": 0.0, "param3": 0.0, "param4": 0.0, "param5": 0.0, "param6": 0.0, "param7": 0.0, "_type": "COMMAND_LONG", "_ts": 1770835607.2029998}
{"mavpackettype": "COMMAND_ACK", "command": 512, "result": 2, "progress": 0, "result_param2": 0, "target_system": 255, "target_component": 190, "_type": "COMMAND_ACK", "_ts": 1770835607.2029998}
{"mavpackettype": "COMMAND_LONG", "target_system": 1, "target_component": 1, "command": 521, "confirmation": 0, "param1": 1.0, "param2": 0.0, "param3": 0.0, "param4": 0.0, "param5": 0.0, "param6": 0.0, "param7": 0.0, "_type": "COMMAND_LONG", "_ts": 1770835607.2029998}
{"mavpackettype": "COMMAND_LONG", "target_system": 1, "target_component": 1, "command": 512, "confirmation": 0, "param1": 259.0, "param2": 0.0, "param3": 0.0, "param4": 0.0, "param5": 0.0, "param6": 0.0, "param7": 0.0, "_type": "COMMAND_LONG", "_ts": 1770835618.609}
{"mavpackettype": "COMMAND_ACK", "command": 512, "result": 2, "progress": 0, "result_param2": 0, "target_system": 255, "target_component": 190, "_type": "COMMAND_ACK", "_ts": 1770835618.616}
{"mavpackettype": "COMMAND_LONG", "target_system": 1, "target_component": 1, "command": 521, "confirmation": 0, "param1": 1.0, "param2": 0.0, "param3": 0.0, "param4": 0.0, "param5": 0.0, "param6": 0.0, "param7": 0.0, "_type": "COMMAND_LONG", "_ts": 1770835618.616}
{"mavpackettype": "COMMAND_LONG", "target_system": 1, "target_component": 1, "command": 512, "confirmation": 0, "param1": 259.0, "param2": 0.0, "param3": 0.0, "param4": 0.0, "param5": 0.0, "param6": 0.0, "param7": 0.0, "_type": "COMMAND_LONG", "_ts": 1770835637.658}
{"mavpackettype": "COMMAND_ACK", "command": 512, "result": 2, "progress": 0, "result_param2": 0, "target_system": 255, "target_component": 190, "_type": "COMMAND_ACK", "_ts": 1770835637.6599998}
{"mavpackettype": "COMMAND_LONG", "target_system": 1, "target_component": 1, "command": 521, "confirmation": 0, "param1": 1.0, "param2": 0.0, "param3": 0.0, "param4": 0.0, "param5": 0.0, "param6": 0.0, "param7": 0.0, "_type": "COMMAND_LONG", "_ts": 1770835637.662}
